[{"year":1903,"places":[]},{"year":1904,"places":[{"address":"73 Arch","coordinates":[41.56596389400209,-73.04785318266357],"occupants":[{"name":"Martin J."}]}]},{"year":1906,"places":[]},{"year":1907,"places":[{"address":"779 Hamilton Ave","coordinates":[41.540532587290265,-73.02155431814933],"occupants":[{"name":"Martin J."},{"name":"John J."},{"name":"Martin P."},{"name":"Elizabeth"}]}]},{"year":1908,"places":[{"address":"779 Hamilton Ave","coordinates":[41.540532587290265,-73.02155431814933],"occupants":[{"name":"Martin J."},{"name":"John J."},{"name":"Martin P."},{"name":"Elizabeth"}]}]},{"year":1909,"places":[{"address":"992 East Main","coordinates":[41.55258322844265,-73.02634134513774],"occupants":[{"name":"Michael"},{"name":"B. Agnes"},{"name":"John Sr."}]},{"address":"779 Hamilton Ave","coordinates":[41.540532587290265,-73.02155431814933],"occupants":[{"name":"Martin J."},{"name":"John J."},{"name":"Daniel V."},{"name":"Martin P."},{"name":"Elizabeth"}]}]},{"year":1910,"places":[{"address":"992 East Main","coordinates":[41.55258322844265,-73.02634134513774],"occupants":[{"name":"Michael"},{"name":"B. Agnes"},{"name":"John Sr."}]},{"address":"779 Hamilton Ave","coordinates":[41.540532587290265,-73.02155431814933],"occupants":[{"name":"Martin J."},{"name":"John J."},{"name":"Daniel V."},{"name":"Martin P."},{"name":"Elizabeth"}]}]},{"year":1911,"places":[{"address":"992 East Main","coordinates":[41.55258322844265,-73.02634134513774],"occupants":[{"name":"Michael"},{"name":"B. Agnes"},{"name":"John Sr."}]},{"address":"779 Hamilton Ave","coordinates":[41.540532587290265,-73.02155431814933],"occupants":[{"name":"Martin J."},{"name":"John J."},{"name":"Daniel V."},{"name":"Louis P."},{"name":"Martin P."},{"name":"Elizabeth"}]}]},{"year":1912,"places":[{"address":"482 West Main","coordinates":[41.55854170169168,-73.04912863164311],"occupants":[{"name":"Michael"},{"name":"B. Agnes"},{"name":"John Sr."}]},{"address":"17 Pemberton","coordinates":[41.55011127583599,-73.03292303164338],"occupants":[{"name":"Martin J."},{"name":"John J."},{"name":"Daniel V."},{"name":"Louis P."},{"name":"Martin P."},{"name":"Elizabeth"}]}]},{"year":1913,"places":[{"address":"482 West Main","coordinates":[41.55854170169168,-73.04912863164311],"occupants":[{"name":"Michael"},{"name":"B. Agnes"},{"name":"John Sr."}]},{"address":"17 Pemberton","coordinates":[41.55011127583599,-73.03292303164338],"occupants":[{"name":"Martin J."},{"name":"John J."},{"name":"Daniel V."},{"name":"Louis P."},{"name":"Martin P."},{"name":"Elizabeth"}]}]},{"year":1914,"places":[{"address":"187 Baldwin","coordinates":[41.55001380527302,-73.03430448888977],"occupants":[{"name":"Michael"},{"name":"B. Agnes"},{"name":"John Sr."}]},{"address":"17 Pemberton","coordinates":[41.55011127583599,-73.03292303164338],"occupants":[{"name":"Martin J."},{"name":"John J."},{"name":"Daniel V."},{"name":"Louis P."},{"name":"Martin P."},{"name":"Elizabeth"}]}]},{"year":1915,"places":[{"address":"187 Baldwin","coordinates":[41.55001380527302,-73.03430448888977],"occupants":[{"name":"Michael"},{"name":"B. Agnes"},{"name":"John Sr."}]},{"address":"17 Pemberton","coordinates":[41.55011127583599,-73.03292303164338],"occupants":[{"name":"Martin J."},{"name":"John J."},{"name":"Daniel V."},{"name":"Louis P."},{"name":"Martin P."},{"name":"Elizabeth"}]}]},{"year":1916,"places":[{"address":"187 Baldwin","coordinates":[41.55001380527302,-73.03430448888977],"occupants":[{"name":"Michael"},{"name":"B. Agnes"},{"name":"John Sr."},{"name":"Rita"}]},{"address":"17 Pemberton","coordinates":[41.55011127583599,-73.03292303164338],"occupants":[{"name":"Martin J."},{"name":"John J."},{"name":"Daniel V."},{"name":"Louis P."},{"name":"Martin P."},{"name":"Elizabeth"}]}]},{"year":1917,"places":[{"address":"187 Baldwin","coordinates":[41.55001380527302,-73.03430448888977],"occupants":[{"name":"Michael"},{"name":"B. Agnes"},{"name":"John Sr."},{"name":"Rita"}]},{"address":"17 Pemberton","coordinates":[41.55011127583599,-73.03292303164338],"occupants":[{"name":"Martin J."},{"name":"John J."},{"name":"Daniel V."},{"name":"Louis P."},{"name":"Martin P."},{"name":"Elizabeth"}]}]},{"year":1918,"places":[{"address":"187 Baldwin","coordinates":[41.55001380527302,-73.03430448888977],"occupants":[{"name":"Michael"},{"name":"B. Agnes"},{"name":"John Sr."},{"name":"Rita"}]},{"address":"17 Pemberton","coordinates":[41.55011127583599,-73.03292303164338],"occupants":[{"name":"Martin J."},{"name":"John J."},{"name":"Daniel V."},{"name":"Louis P."},{"name":"Martin P."},{"name":"Elizabeth"}]}]},{"year":1919,"places":[{"address":"187 Baldwin","coordinates":[41.55001380527302,-73.03430448888977],"occupants":[{"name":"Michael"},{"name":"B. Agnes"},{"name":"John Sr."},{"name":"Rita"}]},{"address":"17 Pemberton","coordinates":[41.55011127583599,-73.03292303164338],"occupants":[{"name":"Martin J."},{"name":"John J."},{"name":"Daniel V."},{"name":"Louis P."},{"name":"Martin P."},{"name":"Elizabeth"}]}]},{"year":1920,"places":[{"address":"381 East Main","coordinates":[41.55483639449066,-73.0341263888897],"occupants":[{"name":"Michael"},{"name":"B. Agnes"},{"name":"John Sr."},{"name":"Rita"}]},{"address":"17 Pemberton","coordinates":[41.55011127583599,-73.03292303164338],"occupants":[{"name":"Martin J."},{"name":"John J."},{"name":"Daniel V."},{"name":"Louis P."},{"name":"Martin P."},{"name":"Elizabeth"}]}]},{"year":1921,"places":[{"address":"381 East Main","coordinates":[41.55483639449066,-73.0341263888897],"occupants":[{"name":"Michael"},{"name":"B. Agnes"},{"name":"John Sr."},{"name":"Rita"}]},{"address":"17 Pemberton","coordinates":[41.55011127583599,-73.03292303164338],"occupants":[{"name":"Martin J."},{"name":"John J."},{"name":"Daniel V."},{"name":"Louis P."},{"name":"Martin P."},{"name":"Elizabeth"}]}]},{"year":1922,"places":[{"address":"381 East Main","coordinates":[41.55483639449066,-73.0341263888897],"occupants":[{"name":"Michael"},{"name":"B. Agnes"},{"name":"John Sr."},{"name":"Rita"}]},{"address":"17 Pemberton","coordinates":[41.55011127583599,-73.03292303164338],"occupants":[{"name":"Martin J."},{"name":"John J."},{"name":"Daniel V."},{"name":"Louis P."},{"name":"Martin P."},{"name":"Elizabeth"}]}]},{"year":1923,"places":[{"address":"381 East Main","coordinates":[41.55483639449066,-73.0341263888897],"occupants":[{"name":"Michael"},{"name":"B. Agnes"},{"name":"John Sr."},{"name":"Rita"}]},{"address":"18 Ayers","coordinates":[41.55025681712794,-73.03245837354743],"occupants":[{"name":"Martin J."},{"name":"John J."},{"name":"Daniel V."},{"name":"Louis P."},{"name":"Martin P."},{"name":"Elizabeth"}]}]},{"year":1925,"places":[{"address":"381 East Main","coordinates":[41.55483639449066,-73.0341263888897],"occupants":[{"name":"Michael"},{"name":"B. Agnes"},{"name":"John Sr."},{"name":"Rita"}]},{"address":"18 Ayers","coordinates":[41.55025681712794,-73.03245837354743],"occupants":[{"name":"Martin J."},{"name":"John J."},{"name":"Daniel V."},{"name":"Louis P."},{"name":"Martin P."},{"name":"Elizabeth"}]}]},{"year":1927,"places":[{"address":"381 East Main","coordinates":[41.55483639449066,-73.0341263888897],"occupants":[{"name":"Michael"},{"name":"B. Agnes"},{"name":"John Sr."},{"name":"Rita"}]},{"address":"55 Pemberton","coordinates":[41.55013276344401,-73.03289098704062],"occupants":[{"name":"Martin J."},{"name":"John J."},{"name":"Daniel V."},{"name":"Louis P."},{"name":"Martin P."},{"name":"Elizabeth"}]}]},{"year":1928,"places":[{"address":"16 Cherry","coordinates":[41.55503900847815,-73.0339790447117],"occupants":[{"name":"Michael"},{"name":"B. Agnes"},{"name":"John Sr."},{"name":"Rita"}]},{"address":"31 Pleasant","coordinates":[41.54972226938156,-73.03288098888976],"occupants":[{"name":"Martin J."},{"name":"John J."},{"name":"Daniel V."},{"name":"Louis P."},{"name":"Martin P."},{"name":"Elizabeth"}]}]},{"year":1929,"places":[{"address":"16 Cherry","coordinates":[41.55503900847815,-73.0339790447117],"occupants":[{"name":"Michael"},{"name":"B. Agnes"},{"name":"John Sr."},{"name":"Rita"}]},{"address":"31 Pleasant","coordinates":[41.54972226938156,-73.03288098888976],"occupants":[{"name":"Martin J."},{"name":"John J."},{"name":"Daniel V."},{"name":"Louis P."},{"name":"Martin P."},{"name":"Elizabeth"}]}]},{"year":1930,"places":[{"address":"16 Cherry","coordinates":[41.55503900847815,-73.0339790447117],"occupants":[{"name":"Michael"},{"name":"B. Agnes"},{"name":"John Sr."},{"name":"Rita"}]},{"address":"31 Pleasant","coordinates":[41.54972226938156,-73.03288098888976],"occupants":[{"name":"Martin J."},{"name":"John J."},{"name":"Daniel V."},{"name":"Louis P."},{"name":"Martin P."},{"name":"Elizabeth"}]}]},{"year":1931,"places":[{"address":"16 Cherry","coordinates":[41.55503900847815,-73.0339790447117],"occupants":[{"name":"Michael"},{"name":"B. Agnes"},{"name":"John Sr."},{"name":"Rita"}]},{"address":"31 Pleasant","coordinates":[41.54972226938156,-73.03288098888976],"occupants":[{"name":"Martin J."},{"name":"John J."},{"name":"Daniel V."},{"name":"Louis P."},{"name":"Martin P."},{"name":"Elizabeth"}]}]},{"year":1932,"places":[{"address":"16 Cherry","coordinates":[41.55503900847815,-73.0339790447117],"occupants":[{"name":"Michael"},{"name":"B. Agnes"},{"name":"John Sr."},{"name":"Rita"}]},{"address":"31 Pleasant","coordinates":[41.54972226938156,-73.03288098888976],"occupants":[{"name":"Martin J."},{"name":"John J."},{"name":"Daniel V."},{"name":"Louis P."},{"name":"Martin P."},{"name":"Elizabeth"}]}]},{"year":1933,"places":[{"address":"373 East Main","coordinates":[41.55490206611255,-73.03428280238288],"occupants":[{"name":"Michael"},{"name":"B. Agnes"},{"name":"John Sr."},{"name":"Rita"}]},{"address":"31 Pleasant","coordinates":[41.54972226938156,-73.03288098888976],"occupants":[{"name":"Martin J."},{"name":"John J."},{"name":"Daniel V."},{"name":"Louis P."},{"name":"Martin P."},{"name":"Elizabeth"}]}]},{"year":1934,"places":[{"address":"373 East Main","coordinates":[41.55490206611255,-73.03428280238288],"occupants":[{"name":"Michael"},{"name":"B. Agnes"},{"name":"John Sr."},{"name":"Rita"}]},{"address":"31 Pleasant","coordinates":[41.54972226938156,-73.03288098888976],"occupants":[{"name":"Martin J."},{"name":"John J."},{"name":"Daniel V."},{"name":"Louis P."},{"name":"Martin P."},{"name":"Elizabeth"}]}]},{"year":1935,"places":[{"address":"16 Cherry","coordinates":[41.55503900847815,-73.0339790447117],"occupants":[{"name":"Michael"},{"name":"B. Agnes"},{"name":"John Sr."},{"name":"Rita"}]},{"address":"31 Pleasant","coordinates":[41.54972226938156,-73.03288098888976],"occupants":[{"name":"Martin J."},{"name":"John J."},{"name":"Daniel V."},{"name":"Louis P."},{"name":"Elizabeth"}]}]},{"year":1936,"places":[{"address":"16 Cherry","coordinates":[41.55503900847815,-73.0339790447117],"occupants":[{"name":"Michael"},{"name":"B. Agnes"}]},{"address":"1723 East Main","coordinates":[41.5460569438432,-73.0134909888899],"occupants":[{"name":"John Sr."},{"name":"Mary A."}]},{"address":"31 Pleasant","coordinates":[41.54972226938156,-73.03288098888976],"occupants":[{"name":"Martin J."},{"name":"John J."},{"name":"Daniel V."},{"name":"Louis P."},{"name":"Martin P."},{"name":"Elizabeth"}]}]},{"year":1939,"places":[{"address":"373 East Main","coordinates":[41.55490206611255,-73.03428280238288],"occupants":[{"name":"Michael"},{"name":"B. Agnes"}]},{"address":"57 Lounsbury","coordinates":[41.54124858550715,-73.03588197366793],"occupants":[{"name":"John Sr."},{"name":"Mary A."}]},{"address":"31 Pleasant","coordinates":[41.54972226938156,-73.03288098888976],"occupants":[{"name":"Martin J."},{"name":"John J."},{"name":"Daniel V."},{"name":"Louis P."},{"name":"Martin P."},{"name":"Elizabeth"}]}]},{"year":1940,"places":[{"address":"373 East Main","coordinates":[41.55490206611255,-73.03428280238288],"occupants":[{"name":"Michael"},{"name":"B. Agnes"}]},{"address":"57 Lounsbury","coordinates":[41.54124858550715,-73.03588197366793],"occupants":[{"name":"John Sr."},{"name":"Mary A."}]},{"address":"31 Pleasant","coordinates":[41.54972226938156,-73.03288098888976],"occupants":[{"name":"Martin J."},{"name":"John J."},{"name":"Daniel V."},{"name":"Louis P."},{"name":"Martin P."},{"name":"Elizabeth"}]}]},{"year":1942,"places":[{"address":"373 East Main","coordinates":[41.55490206611255,-73.03428280238288],"occupants":[{"name":"Michael"},{"name":"B. Agnes"}]},{"address":"57 Lounsbury","coordinates":[41.54124858550715,-73.03588197366793],"occupants":[{"name":"John Sr."},{"name":"Mary A."}]},{"address":"31 Pleasant","coordinates":[41.54972226938156,-73.03288098888976],"occupants":[{"name":"Martin J."},{"name":"Daniel V."},{"name":"Louis P."},{"name":"Martin P."},{"name":"Elizabeth"}]}]},{"year":1945,"places":[{"address":"373 East Main","coordinates":[41.55490206611255,-73.03428280238288],"occupants":[{"name":"Michael"},{"name":"B. Agnes"}]},{"address":"57 Lounsbury","coordinates":[41.54124858550715,-73.03588197366793],"occupants":[{"name":"John Sr."},{"name":"Mary A."}]},{"address":"31 Pleasant","coordinates":[41.54972226938156,-73.03288098888976],"occupants":[{"name":"Martin J."},{"name":"Daniel V."},{"name":"Louis P."},{"name":"Martin P."},{"name":"Elizabeth"}]}]},{"year":1946,"places":[{"address":"373 East Main","coordinates":[41.55490206611255,-73.03428280238288],"occupants":[{"name":"Michael"},{"name":"B. Agnes"}]},{"address":"57 Lounsbury","coordinates":[41.54124858550715,-73.03588197366793],"occupants":[{"name":"John Sr."},{"name":"Mary A."}]},{"address":"31 Pleasant","coordinates":[41.54972226938156,-73.03288098888976],"occupants":[{"name":"Martin J."},{"name":"Daniel V."},{"name":"Louis P."},{"name":"Martin P."},{"name":"Elizabeth"}]}]},{"year":1952,"places":[{"address":"373 East Main","coordinates":[41.55490206611255,-73.03428280238288],"occupants":[{"name":"Michael"},{"name":"B. Agnes"}]},{"address":"57 Lounsbury","coordinates":[41.54124858550715,-73.03588197366793],"occupants":[{"name":"John Sr."},{"name":"Mary A."}]},{"address":"31 Pleasant","coordinates":[41.54972226938156,-73.03288098888976],"occupants":[{"name":"Daniel V."},{"name":"Louis P."},{"name":"Martin P."},{"name":"Elizabeth"}]}]},{"year":1954,"places":[{"address":"373 East Main","coordinates":[41.55490206611255,-73.03428280238288],"occupants":[{"name":"Michael"},{"name":"B. Agnes"}]},{"address":"114 Dixie Ave","coordinates":[41.54243643169287,-73.02671460250323],"occupants":[{"name":"John Sr."},{"name":"Mary A."}]},{"address":"31 Pleasant","coordinates":[41.54972226938156,-73.03288098888976],"occupants":[{"name":"Daniel V."},{"name":"Louis P."},{"name":"Martin P."},{"name":"Elizabeth"}]}]},{"year":1955,"places":[{"address":"373 East Main","coordinates":[41.55490206611255,-73.03428280238288],"occupants":[{"name":"Michael"},{"name":"B. Agnes"}]},{"address":"114 Dixie Ave","coordinates":[41.54243643169287,-73.02671460250323],"occupants":[{"name":"John Sr."},{"name":"Mary A."}]},{"address":"31 Pleasant","coordinates":[41.54972226938156,-73.03288098888976],"occupants":[{"name":"Daniel V."},{"name":"Louis P."},{"name":"Martin P."},{"name":"Donald M"},{"name":"Elizabeth"}]}]},{"year":1956,"places":[{"address":"373 East Main","coordinates":[41.55490206611255,-73.03428280238288],"occupants":[{"name":"Michael"},{"name":"B. Agnes"}]},{"address":"114 Dixie Ave","coordinates":[41.54243643169287,-73.02671460250323],"occupants":[{"name":"John Sr."},{"name":"Mary A."}]},{"address":"31 Pleasant","coordinates":[41.54972226938156,-73.03288098888976],"occupants":[{"name":"Daniel V."},{"name":"Donald M"},{"name":"Elizabeth"}]}]},{"year":1957,"places":[{"address":"373 East Main","coordinates":[41.55490206611255,-73.03428280238288],"occupants":[{"name":"Michael"},{"name":"B. Agnes"}]},{"address":"114 Dixie Ave","coordinates":[41.54243643169287,-73.02671460250323],"occupants":[{"name":"John Sr."},{"name":"Mary A."}]},{"address":"31 Pleasant","coordinates":[41.54972226938156,-73.03288098888976],"occupants":[{"name":"Daniel V."},{"name":"Donald M"},{"name":"Elizabeth"}]}]},{"year":1959,"places":[{"address":"17 Maple Ave","coordinates":[41.555851577746765,-73.03505187354722],"occupants":[{"name":"Michael"},{"name":"B. Agnes"}]},{"address":"114 Dixie Ave","coordinates":[41.54243643169287,-73.02671460250323],"occupants":[{"name":"John Sr."},{"name":"Mary A."}]},{"address":"31 Pleasant","coordinates":[41.54972226938156,-73.03288098888976],"occupants":[{"name":"Daniel V."},{"name":"Martin P."},{"name":"Donald M"},{"name":"Elizabeth"}]}]},{"year":1963,"places":[{"address":"17 Maple Ave","coordinates":[41.555851577746765,-73.03505187354722],"occupants":[{"name":"Michael"},{"name":"B. Agnes"}]},{"address":"114 Dixie Ave","coordinates":[41.54243643169287,-73.02671460250323],"occupants":[{"name":"John Sr."},{"name":"Mary A."},{"name":"Mary (sister)"}]},{"address":"31 Pleasant","coordinates":[41.54972226938156,-73.03288098888976],"occupants":[{"name":"Daniel V."},{"name":"Elizabeth"}]}]},{"year":1968,"places":[{"address":"114 Dixie Ave","coordinates":[41.54243643169287,-73.02671460250323],"occupants":[{"name":"John Sr."},{"name":"Mary A."}]},{"address":"31 Pleasant","coordinates":[41.54972226938156,-73.03288098888976],"occupants":[{"name":"Daniel V."}]}]},{"year":1979,"places":[{"address":"114 Dixie Ave","coordinates":[41.54243643169287,-73.02671460250323],"occupants":[{"name":"John Sr."},{"name":"Mary A."}]},{"address":"31 Pleasant","coordinates":[41.54972226938156,-73.03288098888976],"occupants":[{"name":"Daniel V."}]}]},{"year":1982,"places":[{"address":"114 Dixie Ave","coordinates":[41.54243643169287,-73.02671460250323],"occupants":[{"name":"John Sr."},{"name":"Mary A."}]},{"address":"31 Pleasant","coordinates":[41.54972226938156,-73.03288098888976],"occupants":[{"name":"Daniel V."}]}]},{"year":1985,"places":[{"address":"114 Dixie Ave","coordinates":[41.54243643169287,-73.02671460250323],"occupants":[{"name":"John Sr."}]},{"address":"31 Pleasant","coordinates":[41.54972226938156,-73.03288098888976],"occupants":[{"name":"Daniel V."}]}]}]